City_ID,City,Lat,Lng,Max Temp,Humidity,Cloudiness,Wind Speed,Country,Date
0,brooks,50.5834,-111.8851,5.99,75,100,6.69,CA,2024-02-03 20:15:02
1,san carlos del zulia,9.0,-71.9135,32.23,58,100,4.6,VE,2024-02-03 20:19:29
2,ballina,-28.8667,153.5667,24.88,85,99,3.19,AU,2024-02-03 20:19:29
3,avarua,-21.2078,-159.775,28.03,78,36,2.57,CK,2024-02-03 20:12:09
4,albany,42.6001,-73.9662,3.36,60,64,2.24,US,2024-02-03 20:09:25
5,adamstown,-25.066,-130.1015,24.99,73,98,1.88,PN,2024-02-03 20:12:01
6,bowen,-20.0167,148.2333,26.11,74,100,3.83,AU,2024-02-03 20:12:42
7,blackmans bay,-43.0167,147.3167,14.85,91,100,1.83,AU,2024-02-03 20:11:59
8,la ronge,55.1001,-105.2842,0.14,93,100,3.6,CA,2024-02-03 20:19:30
9,bethel,41.3712,-73.414,5.17,54,0,3.09,US,2024-02-03 20:12:02
10,lionel town,17.8101,-77.2406,30.5,55,0,3.75,JM,2024-02-03 20:19:31
11,carthage,36.8611,10.3316,12.74,82,20,2.57,TN,2024-02-03 20:19:31
12,puerto natales,-51.7236,-72.4875,15.25,38,0,9.77,CL,2024-02-03 20:12:01
13,jamestown,42.097,-79.2353,7.51,64,0,3.09,US,2024-02-03 20:07:58
14,bredasdorp,-34.5322,20.0403,23.68,78,74,3.71,ZA,2024-02-03 20:12:02
15,puerto ayora,-0.7393,-90.3518,31.98,79,52,5.35,EC,2024-02-03 20:12:09
16,port-aux-francais,-49.35,70.2167,7.82,75,93,4.33,TF,2024-02-03 20:12:00
17,bac lieu,9.285,105.7244,24.79,83,39,3.34,VN,2024-02-03 20:19:32
18,basco,20.4487,121.9702,24.24,87,0,7.63,PH,2024-02-03 20:19:33
19,jiaojiang,28.6803,121.4428,7.22,86,100,3.25,CN,2024-02-03 20:19:33
20,udachny,66.4167,112.4,-31.28,87,63,1.32,RU,2024-02-03 20:12:06
21,siniscola,40.5719,9.6922,13.75,67,0,2.73,IT,2024-02-03 20:19:33
22,thompson,55.7435,-97.8558,-0.91,100,100,3.09,CA,2024-02-03 20:12:09
23,christchurch,-43.5333,172.6333,16.93,68,69,4.63,NZ,2024-02-03 20:19:34
24,whitehorse,60.7161,-135.0538,-26.22,61,99,0.89,CA,2024-02-03 20:12:06
25,ribeira grande,38.5167,-28.7,17.22,82,20,8.75,PT,2024-02-03 20:12:01
26,happy valley-goose bay,53.3168,-60.3315,-18.83,65,0,2.06,CA,2024-02-03 20:19:34
27,lanzhou,36.0564,103.7922,-2.41,77,100,0.77,CN,2024-02-03 20:19:35
28,waitangi,-43.9535,-176.5597,16.01,79,52,0.45,NZ,2024-02-03 20:08:47
29,wailua homesteads,22.0669,-159.378,23.24,57,100,11.32,US,2024-02-03 20:11:59
30,asbe teferi,9.0833,40.8667,16.88,82,36,2.79,ET,2024-02-03 20:19:35
31,mount gambier,-37.8333,140.7667,12.76,90,0,1.87,AU,2024-02-03 20:12:15
32,acarau,-2.8856,-40.12,28.9,70,78,7.45,BR,2024-02-03 20:19:36
33,porbandar,21.6422,69.6093,23.15,62,0,3.88,IN,2024-02-03 20:19:36
34,chonchi,-42.6128,-73.8092,20.75,43,41,0.9,CL,2024-02-03 20:12:31
35,severo-yeniseyskiy,60.3725,93.0408,-15.24,97,100,0.89,RU,2024-02-03 20:12:14
36,stanley,54.868,-1.6985,6.96,80,20,6.69,GB,2024-02-03 20:12:04
37,tralee,52.2704,-9.7026,10.42,98,100,1.97,IE,2024-02-03 20:12:33
38,enewetak,11.3474,162.3373,26.48,83,94,9.93,MH,2024-02-03 20:12:45
39,brookings,44.3114,-96.7984,2.0,100,100,6.17,US,2024-02-03 20:09:19
40,port alfred,-33.5906,26.891,22.32,92,92,0.45,ZA,2024-02-03 20:12:38
41,dudinka,69.4058,86.1778,-14.07,94,100,5.36,RU,2024-02-03 20:10:20
42,tazovsky,67.4667,78.7,-14.23,93,100,2.94,RU,2024-02-03 20:12:16
43,sitka,57.0531,-135.33,2.94,81,100,3.09,US,2024-02-03 20:12:09
44,vorgashor,67.5833,63.95,-19.71,92,100,3.55,RU,2024-02-03 20:12:03
45,ushuaia,-54.8,-68.3,10.37,73,78,1.9,AR,2024-02-03 20:09:13
46,poronaysk,49.2167,143.1167,-22.54,97,13,1.86,RU,2024-02-03 20:12:16
47,oskaloosa,41.2964,-92.6444,8.56,76,0,5.66,US,2024-02-03 20:19:39
48,tiksi,71.6872,128.8694,-35.47,100,100,2.07,RU,2024-02-03 20:12:04
49,invercargill,-46.4,168.35,15.01,68,100,4.92,NZ,2024-02-03 20:12:15
50,iqaluit,63.7506,-68.5145,-24.06,63,10,8.05,CA,2024-02-03 20:12:08
51,wau,7.7029,27.9953,25.47,21,99,2.18,SS,2024-02-03 20:19:39
52,key west,24.5557,-81.7826,23.0,71,0,2.06,US,2024-02-03 20:19:40
53,lerwick,60.1545,-1.1494,6.0,79,100,11.76,GB,2024-02-03 20:19:40
54,grytviken,-54.2811,-36.5092,9.37,94,100,6.12,GS,2024-02-03 20:12:07
55,lihue,21.9789,-159.3672,23.58,56,100,11.32,US,2024-02-03 20:08:16
56,partizanske,48.6286,18.3846,9.09,90,100,2.88,SK,2024-02-03 20:19:40
57,berdigestyakh,62.0989,126.6992,-36.96,100,92,1.09,RU,2024-02-03 20:19:41
58,amga,60.8953,131.9608,-31.71,100,100,0.54,RU,2024-02-03 20:12:23
59,utrik,11.2278,169.8474,26.38,77,97,9.28,MH,2024-02-03 20:12:07
60,tshabong,-26.05,22.45,31.4,24,97,3.15,BW,2024-02-03 20:19:41
61,hithadhoo,-0.6,73.0833,28.25,76,90,2.8,MV,2024-02-03 20:12:32
62,shihezi,44.3,86.0333,-13.02,94,100,2.33,CN,2024-02-03 20:12:43
63,aktau,43.65,51.2,2.32,77,98,3.53,KZ,2024-02-03 20:19:42
64,izberbash,42.5696,47.8645,1.03,91,100,0.17,RU,2024-02-03 20:19:42
65,naze,28.3667,129.4833,18.71,87,68,4.65,JP,2024-02-03 20:12:38
66,lebu,-37.6167,-73.65,17.32,67,2,10.26,CL,2024-02-03 20:12:17
67,shubarkuduk,49.1447,56.4872,-4.24,93,100,5.51,KZ,2024-02-03 20:19:43
68,nogliki,51.8333,143.1667,-23.14,89,8,3.58,RU,2024-02-03 20:12:14
69,kavaratti,10.5669,72.642,26.73,70,32,2.53,IN,2024-02-03 20:12:25
70,ribadesella,43.4614,-5.0596,11.08,85,24,2.05,ES,2024-02-03 20:19:43
71,remire-montjoly,4.9167,-52.2667,30.02,74,75,4.63,GF,2024-02-03 20:12:27
72,bollnas,61.3482,16.3946,0.51,72,74,7.18,SE,2024-02-03 20:19:44
73,howrah,22.5892,88.3103,20.0,83,0,2.06,IN,2024-02-03 20:12:00
74,kerikeri,-35.2268,173.9474,16.62,85,0,0.89,NZ,2024-02-03 20:12:05
75,st. john's,47.5649,-52.7093,-1.29,88,86,8.49,CA,2024-02-03 20:07:49
76,constantia,44.1833,28.65,3.38,76,45,5.31,RO,2024-02-03 20:12:02
77,tolanaro,-25.0319,46.9987,24.09,81,71,6.84,MG,2024-02-03 20:12:14
78,port elizabeth,-33.918,25.5701,22.95,96,100,2.24,ZA,2024-02-03 20:12:11
79,westport,41.1415,-73.3579,6.2,48,0,5.66,US,2024-02-03 20:19:45
80,murzuq,25.9155,13.9184,10.88,31,0,2.73,LY,2024-02-03 20:19:45
81,edinburgh of the seven seas,-37.0676,-12.3116,16.21,71,23,10.22,SH,2024-02-03 20:11:59
82,las tablas,7.7667,-80.2833,30.1,99,84,3.89,PA,2024-02-03 20:19:45
83,fortaleza,-3.7227,-38.5247,31.15,83,0,5.66,BR,2024-02-03 20:17:58
84,pyt-yakh,60.7499,72.8582,-16.3,100,100,2.24,RU,2024-02-03 20:19:46
85,shimoda,34.6667,138.95,5.06,92,100,4.07,JP,2024-02-03 20:19:46
86,santa cruz,-17.8,-63.1667,36.7,41,20,4.12,BO,2024-02-03 20:15:03
87,plastun,44.7561,136.2939,-16.99,83,2,3.88,RU,2024-02-03 20:19:46
88,hasaki,35.7333,140.8333,4.05,86,100,2.76,JP,2024-02-03 20:19:06
89,warrnambool,-38.3833,142.4833,14.56,86,0,1.92,AU,2024-02-03 20:19:47
90,hermanus,-34.4187,19.2345,23.78,79,93,3.38,ZA,2024-02-03 20:12:06
91,prince george,53.9166,-122.753,-2.31,54,0,2.57,CA,2024-02-03 20:19:47
92,muroto-misakicho,33.2833,134.15,9.12,88,100,7.97,JP,2024-02-03 20:19:48
93,colonia,50.9333,6.95,11.44,89,100,4.63,DE,2024-02-03 20:17:04
94,katsuura,35.1333,140.3,7.63,89,100,4.92,JP,2024-02-03 20:19:48
95,ust-nera,64.5667,143.2,-24.82,99,100,2.19,RU,2024-02-03 20:12:01
96,bubaque,11.2833,-15.8333,26.31,77,0,5.49,GW,2024-02-03 20:12:04
97,sao vicente,-23.9631,-46.3919,31.1,51,100,2.24,BR,2024-02-03 20:12:39
98,papatowai,-46.5619,169.4708,14.42,58,100,6.44,NZ,2024-02-03 20:12:07
99,gadzhiyevo,69.2551,33.3362,-5.16,80,91,12.01,RU,2024-02-03 20:12:13
100,ribeira brava,32.65,-17.0667,19.45,68,97,2.67,PT,2024-02-03 20:15:04
101,bilibino,68.0546,166.4372,-29.21,83,7,3.19,RU,2024-02-03 20:12:03
102,iquitos,-3.7481,-73.2472,29.02,84,75,2.57,PE,2024-02-03 20:18:47
103,omurtag,43.1,26.4167,4.55,77,61,6.23,BG,2024-02-03 20:19:50
104,talnakh,69.4865,88.3972,-14.33,96,100,3.79,RU,2024-02-03 20:12:28
105,isfahan,32.6572,51.6776,-3.2,31,0,2.47,IR,2024-02-03 20:19:50
106,mejit,10.2753,170.8646,26.62,78,69,9.53,MH,2024-02-03 20:12:27
107,lospalos,-8.5186,127.0025,23.2,94,46,1.61,TL,2024-02-03 20:12:30
108,egilsstadir,65.2653,-14.3948,-7.61,65,26,3.08,IS,2024-02-03 20:12:21
109,saudarkrokur,65.7461,-19.6394,-5.24,93,100,4.74,IS,2024-02-03 20:12:12
110,klyuchi,52.2667,79.1667,-5.31,79,100,6.33,RU,2024-02-03 20:12:29
111,ghat,24.9647,10.1728,12.19,23,0,2.54,LY,2024-02-03 20:19:51
112,margaret river,-33.95,115.0667,16.52,55,99,6.78,AU,2024-02-03 20:12:13
113,codrington,-38.2667,141.9667,13.82,86,0,1.8,AU,2024-02-03 20:12:44
114,khanty-mansiysk,61.0042,69.0019,-24.94,77,20,0.0,RU,2024-02-03 20:19:52
115,olonkinbyen,70.9221,-8.7187,-5.32,68,100,7.73,SJ,2024-02-03 20:12:02
116,roma,43.2128,-75.4557,2.75,64,100,4.63,US,2024-02-03 20:19:52
117,labrador city,52.9463,-66.9114,-13.03,82,6,0.34,CA,2024-02-03 20:12:27
118,tostado,-29.232,-61.7692,42.21,25,5,4.08,AR,2024-02-03 20:19:53
119,caleta de carquin,-11.0925,-77.6267,25.32,79,76,4.54,PE,2024-02-03 20:12:33
120,ilulissat,69.2167,-51.1,-20.99,49,25,4.63,GL,2024-02-03 20:12:17
121,coahuayana de hidalgo,18.7,-103.6583,29.57,43,0,3.8,MX,2024-02-03 20:19:53
122,petropavlovsk-kamchatsky,53.0452,158.6483,-19.57,85,20,3.58,RU,2024-02-03 20:12:08
123,al kharj,24.155,47.3346,11.32,32,1,3.83,SA,2024-02-03 20:19:54
124,el porvenir,13.7617,-87.3458,28.63,38,0,4.12,HN,2024-02-03 20:19:54
125,chinhoyi,-17.3667,30.2,20.44,78,91,2.07,ZW,2024-02-03 20:19:54
126,tha khanon,9.0302,98.9529,22.39,95,44,0.65,TH,2024-02-03 20:19:55
127,portland,45.5234,-122.6762,12.6,70,40,1.54,US,2024-02-03 20:09:00
128,gisborne,-38.6533,178.0042,16.35,60,2,4.82,NZ,2024-02-03 20:19:55
129,atherton,53.5237,-2.4935,8.45,92,100,5.08,GB,2024-02-03 20:19:55
130,kodiak,57.79,-152.4072,-4.27,86,100,2.57,US,2024-02-03 20:11:59
131,bardai,11.65,7.2333,19.8,16,3,5.25,NG,2024-02-03 20:12:31
132,alofi,-19.0595,-169.9187,28.94,84,75,4.12,NU,2024-02-03 20:19:56
133,west island,-12.1568,96.8225,27.99,83,100,3.09,CC,2024-02-03 20:12:02
134,kwekwe,-18.9281,29.8149,20.41,70,3,3.81,ZW,2024-02-03 20:19:56
135,glace bay,46.1969,-59.957,-1.06,97,100,8.05,CA,2024-02-03 20:12:37
136,sao joao da barra,-21.6403,-41.0511,30.05,83,94,4.11,BR,2024-02-03 20:11:11
137,luderitz,-26.6481,15.1594,19.67,89,0,2.83,NA,2024-02-03 20:12:33
138,rongelap,11.1635,166.8941,26.49,82,89,8.96,MH,2024-02-03 20:12:08
139,hobe sound,27.0595,-80.1364,26.1,62,40,4.12,US,2024-02-03 20:19:57
140,haiku-pauwela,20.9219,-156.3051,21.81,65,100,10.29,US,2024-02-03 20:12:13
141,polyarnyy,69.1989,33.4478,-4.9,79,91,12.26,RU,2024-02-03 20:12:14
142,chegdomyn,51.1167,133.0167,-31.99,100,100,0.63,RU,2024-02-03 20:19:58
143,crane,31.3974,-102.3501,15.34,24,1,15.24,US,2024-02-03 20:12:19
144,menongue,-14.6585,17.691,19.23,85,91,0.76,AO,2024-02-03 20:19:58
145,kailua-kona,19.6406,-155.9956,26.39,70,20,16.98,US,2024-02-03 20:09:15
146,kol'chugino,56.3,39.3833,-7.27,96,100,3.24,RU,2024-02-03 20:19:59
147,mount isa,-20.7333,139.5,23.87,94,100,6.17,AU,2024-02-03 20:12:26
148,sisimiut,66.9395,-53.6735,-21.08,92,70,3.71,GL,2024-02-03 20:12:36
149,ellsworth,44.5434,-68.4195,-1.04,58,0,6.69,US,2024-02-03 20:19:59
150,humberto de campos,-2.5983,-43.4611,29.23,67,19,4.01,BR,2024-02-03 20:20:00
151,beloyarskiy,63.7119,66.6722,-20.0,99,92,2.24,RU,2024-02-03 20:12:41
152,tekkali,18.6167,84.2333,21.39,90,0,1.32,IN,2024-02-03 20:20:00
153,ceerigaabo,10.6162,47.368,16.52,65,2,1.52,SO,2024-02-03 20:12:41
154,iskateley,67.6803,53.1512,-12.77,85,24,6.71,RU,2024-02-03 20:12:28
155,brisas de zicatela,15.8369,-97.0419,29.29,61,75,6.69,MX,2024-02-03 20:20:01
156,port lincoln,-34.7333,135.8667,19.58,68,0,2.95,AU,2024-02-03 20:20:01
157,nueve de julio,-35.4444,-60.8831,40.17,14,59,4.98,AR,2024-02-03 20:15:47
158,nemuro,43.3236,145.575,-5.03,70,10,6.77,JP,2024-02-03 20:12:36
159,anadyr,64.75,177.4833,-20.56,76,0,2.68,RU,2024-02-03 20:12:00
160,hotan,37.0997,79.9269,-4.15,82,100,1.71,CN,2024-02-03 20:12:28
161,vadso,70.0744,29.7487,-1.91,74,100,9.77,NO,2024-02-03 20:19:00
162,dabat,12.9842,37.765,13.08,54,91,0.38,ET,2024-02-03 20:20:02
163,tipasa,36.5897,2.4475,12.55,85,0,2.1,DZ,2024-02-03 20:20:04
164,gunnedah,-30.9833,150.25,23.99,67,65,1.18,AU,2024-02-03 20:20:05
165,uturoa,-16.7333,-151.4333,27.84,75,53,5.29,PF,2024-02-03 20:12:16
166,georgetown,5.4112,100.3354,27.96,89,20,1.54,MY,2024-02-03 20:12:04
167,fort bragg,35.139,-79.006,13.23,44,0,3.09,US,2024-02-03 20:12:36
168,atafu village,-8.5421,-172.5159,29.16,75,100,8.6,TK,2024-02-03 20:12:03
169,sinabang,2.4803,96.3801,26.31,82,100,3.45,ID,2024-02-03 20:12:29
170,yellowknife,62.456,-114.3525,-17.55,85,100,8.05,CA,2024-02-03 20:07:39
171,taungdwingyi,20.0167,95.55,18.61,57,0,0.6,MM,2024-02-03 20:20:10
172,sabang,5.8933,95.3214,27.24,75,98,2.85,ID,2024-02-03 20:20:11
173,bamboo flat,11.7,92.7167,24.05,88,42,0.0,IN,2024-02-03 20:12:10
174,naro moru,-0.1676,37.0213,13.21,84,10,0.88,KE,2024-02-03 20:20:14
175,vidyayevo,69.3191,32.8049,-4.84,83,98,9.11,RU,2024-02-03 20:20:16
176,as sulayyil,20.4607,45.5779,15.14,25,0,6.51,SA,2024-02-03 20:12:42
177,varto,39.1732,41.4559,-6.79,95,98,1.09,TR,2024-02-03 20:20:17
178,shimanovsk,52.0,127.7,-26.95,100,11,1.47,RU,2024-02-03 20:20:17
179,hamilton,39.1834,-84.5333,11.24,58,0,5.66,US,2024-02-03 20:15:37
180,sikasso,10.9167,-7.0,29.3,15,0,2.51,ML,2024-02-03 20:12:02
181,cockburn town,21.4612,-71.1419,23.2,61,0,2.26,TC,2024-02-03 20:12:07
182,lebork,54.5392,17.7501,6.75,81,94,9.0,PL,2024-02-03 20:20:18
183,okhotsk,59.3833,143.3,-24.98,76,18,7.83,RU,2024-02-03 20:12:38
184,yaren,-0.5472,166.916,29.08,76,100,6.81,NR,2024-02-03 20:12:13
185,tofol,5.3248,163.0078,28.15,82,100,9.41,FM,2024-02-03 20:20:21
186,palikir - national government center,6.9248,158.1611,27.34,79,91,6.55,FM,2024-02-03 20:12:14
187,jaru,-10.4389,-62.4664,27.85,87,66,2.11,BR,2024-02-03 20:20:22
188,huarmey,-10.0681,-78.1522,26.01,77,81,4.06,PE,2024-02-03 20:20:23
189,nuuk,64.1835,-51.7216,-16.59,78,93,3.85,GL,2024-02-03 20:12:08
190,ibi,38.6253,-0.5723,8.65,85,5,1.5,ES,2024-02-03 20:20:23
191,savelugu,9.6244,-0.8253,30.25,14,2,2.86,GH,2024-02-03 20:20:23
192,la passe,45.5549,-0.8967,7.21,92,58,3.07,FR,2024-02-03 20:20:25
193,laizhou,37.1717,119.9214,-2.93,66,7,5.74,CN,2024-02-03 20:20:26
194,ulsteinvik,62.3432,5.8487,5.42,61,13,10.28,NO,2024-02-03 20:20:26
195,ternate,0.8,127.4,26.14,81,31,3.37,ID,2024-02-03 20:20:27
196,namibe,-15.1961,12.1522,25.61,87,100,3.95,AO,2024-02-03 20:12:14
197,basoko,1.2391,23.616,28.61,45,100,1.06,CD,2024-02-03 20:20:27
198,primero de mayo,-32.2552,-58.4228,38.23,20,3,2.82,AR,2024-02-03 20:20:27
199,alice springs,-23.7,133.8833,27.9,31,100,8.75,AU,2024-02-03 20:12:08
200,linghai,41.1653,121.3667,-12.91,72,26,2.24,CN,2024-02-03 20:20:28
201,valdivia,-39.8142,-73.2459,26.05,26,8,1.59,CL,2024-02-03 20:20:28
202,mantua,45.1667,10.7833,7.77,53,44,1.74,IT,2024-02-03 20:20:29
203,tomatlan,19.9333,-105.25,31.22,28,0,6.09,MX,2024-02-03 20:20:29
204,kismayo,-0.3582,42.5454,26.53,86,26,7.09,SO,2024-02-03 20:20:29
205,kapuskasing,49.4169,-82.4331,1.4,86,20,2.55,CA,2024-02-03 20:08:01
206,newman,37.3138,-121.0208,12.38,74,99,2.24,US,2024-02-03 20:20:30
207,crikvenica,45.1772,14.6928,9.27,76,0,1.03,HR,2024-02-03 20:20:30
208,saint marys,30.7305,-81.5465,19.45,76,0,8.75,US,2024-02-03 20:20:30
209,akrehamn,59.2667,5.1833,6.34,81,75,13.38,NO,2024-02-03 20:12:17
210,borogontsy,62.6683,131.1683,-42.47,100,79,1.1,RU,2024-02-03 20:12:17
211,dawei,14.0833,98.2,21.0,75,16,1.17,MM,2024-02-03 20:20:31
212,the pas,53.8251,-101.2541,1.01,93,100,3.6,CA,2024-02-03 20:20:31
213,susuman,62.7833,148.1667,-28.35,99,100,1.63,RU,2024-02-03 20:20:31
214,kamina,-8.7386,24.9906,18.69,95,96,0.97,CD,2024-02-03 20:20:31
215,nadym,65.5333,72.5167,-19.02,98,99,2.86,RU,2024-02-03 20:20:32
216,slawno,54.3628,16.6789,5.23,89,100,9.07,PL,2024-02-03 20:20:32
217,arsk,56.0915,49.8778,-5.92,99,100,2.43,RU,2024-02-03 20:20:32
218,mindelo,16.8901,-24.9804,23.75,60,58,6.69,CV,2024-02-03 20:20:32
219,dryden,49.7833,-92.7503,2.16,69,0,2.57,CA,2024-02-03 20:20:33
220,araripe,-7.2125,-40.0461,29.04,44,88,1.89,BR,2024-02-03 20:20:33
221,guerrero negro,27.9769,-114.0611,17.61,54,0,7.49,MX,2024-02-03 20:12:44
222,suances,43.4334,-4.0434,12.77,100,100,0.0,ES,2024-02-03 20:20:33
223,tateyama,34.9833,139.8667,4.5,88,100,3.33,JP,2024-02-03 20:12:47
224,port mathurin,-19.6833,63.4167,26.56,70,19,6.69,MU,2024-02-03 20:12:01
225,marquette,46.5333,-87.6335,8.21,56,2,0.85,US,2024-02-03 20:20:34
226,mitu,1.1983,-70.1733,29.69,65,100,1.22,CO,2024-02-03 20:12:10
227,cadale,2.7603,46.3222,26.46,81,87,8.13,SO,2024-02-03 20:15:36
228,margate,51.3813,1.3862,11.6,85,100,0.89,GB,2024-02-03 20:12:18
229,el granada,37.5027,-122.4694,14.02,79,75,2.57,US,2024-02-03 20:12:30
230,akureyri,65.6835,-18.0878,-5.04,86,75,5.14,IS,2024-02-03 20:20:35
231,batang,-6.4846,110.7083,26.14,88,100,5.05,ID,2024-02-03 20:20:35
232,vilyuchinsk,52.9306,158.4028,-18.75,82,98,4.16,RU,2024-02-03 20:12:01
233,istaravshan,39.9142,69.0033,-0.33,91,100,0.68,TJ,2024-02-03 20:20:35
234,mehlville,38.5084,-90.3229,14.9,66,0,3.6,US,2024-02-03 20:20:36
235,havre,49.5833,0.3333,10.11,93,100,5.66,FR,2024-02-03 20:20:36
236,alesund,62.4723,6.1549,5.42,62,75,10.8,NO,2024-02-03 20:18:33
237,wenchang,30.904,118.4887,1.24,98,100,3.73,CN,2024-02-03 20:16:29
238,mugia,43.1041,-9.2179,11.62,77,75,1.13,ES,2024-02-03 20:20:37
239,fale old settlement,-9.3852,-171.2468,28.77,79,100,8.78,TK,2024-02-03 20:12:10
240,chancay,-11.5714,-77.2672,24.82,80,85,3.79,PE,2024-02-03 20:20:37
241,dunedin,-45.8742,170.5036,13.28,49,98,1.45,NZ,2024-02-03 20:20:37
242,hawaiian paradise park,19.5933,-154.9731,22.73,77,100,6.69,US,2024-02-03 20:12:16
243,palmer,42.1584,-72.3287,4.79,40,20,7.2,US,2024-02-03 20:19:10
244,qaqortoq,60.7167,-46.0333,-19.48,68,12,4.22,GL,2024-02-03 20:12:13
245,ancud,-41.8697,-73.8203,16.04,57,75,4.06,CL,2024-02-03 20:12:38
246,cabedelo,-6.9811,-34.8339,29.37,69,49,6.29,BR,2024-02-03 20:20:01
247,tucacas,10.7906,-68.3258,27.36,75,96,4.14,VE,2024-02-03 20:18:24
248,emerald,-23.5333,148.1667,22.41,91,60,4.06,AU,2024-02-03 20:12:47
249,longyearbyen,78.2186,15.6401,-13.09,85,0,5.14,SJ,2024-02-03 20:12:09
250,carnarvon,-24.8667,113.6333,23.09,79,0,10.92,AU,2024-02-03 20:20:39
251,bako,5.7833,36.5667,21.28,57,95,1.33,ET,2024-02-03 20:20:39
252,newmarket,44.0501,-79.4663,4.16,58,6,1.7,CA,2024-02-03 20:12:02
253,saipan,15.1355,145.701,26.39,65,20,9.26,MP,2024-02-03 20:12:07
254,jasrasar,28.298,74.8093,15.48,45,99,1.9,IN,2024-02-03 20:20:40
255,tual,-5.6667,132.75,28.73,78,100,4.71,ID,2024-02-03 20:20:40
256,tolbazy,54.0241,55.8825,-10.92,94,85,4.5,RU,2024-02-03 20:20:40
257,trinity beach,-16.7888,145.6968,26.67,100,75,1.54,AU,2024-02-03 20:20:41
258,initao,8.4997,124.3039,25.17,86,11,0.79,PH,2024-02-03 20:20:41
259,vernon,50.2581,-119.2691,6.27,92,100,0.65,CA,2024-02-03 20:12:47
260,leirvik,59.7798,5.5005,5.9,76,100,10.76,NO,2024-02-03 20:20:41
261,armacao de buzios,-22.7469,-41.8817,30.03,84,100,5.53,BR,2024-02-03 20:20:42
262,nyurba,63.2842,118.3319,-24.5,92,91,3.12,RU,2024-02-03 20:20:42
263,uyar,55.81,94.3153,-14.97,100,98,1.29,RU,2024-02-03 20:20:42
264,vila franca do campo,37.7167,-25.4333,16.23,84,97,3.41,PT,2024-02-03 20:20:43
265,port saint john's,-31.6229,29.5448,23.47,86,100,4.07,ZA,2024-02-03 20:12:06
266,umm kaddadah,13.6017,26.6876,16.99,21,85,6.43,SD,2024-02-03 20:20:43
267,yarmouth,41.7057,-70.2286,2.26,73,100,10.73,US,2024-02-03 20:20:43
268,badger,64.8,-147.5333,-37.58,59,100,0.0,US,2024-02-03 20:07:07
269,punta arenas,-53.15,-70.9167,14.06,44,75,7.72,CL,2024-02-03 20:12:08
270,kalevala,65.2,31.1667,-2.73,96,100,5.36,RU,2024-02-03 20:20:44
271,prineville,44.2999,-120.8345,8.16,59,0,2.24,US,2024-02-03 20:17:23
272,mandera,3.9366,41.867,33.46,31,100,3.36,KE,2024-02-03 20:12:26
273,east grand forks,47.93,-97.0245,1.13,94,100,5.14,US,2024-02-03 20:20:45
274,east london,-33.0153,27.9116,24.98,85,69,5.28,ZA,2024-02-03 20:12:01
275,esil,51.9556,66.4042,-1.62,96,100,6.2,KZ,2024-02-03 20:20:45
276,uryv-pokrovka,51.1159,39.1639,-0.45,96,100,6.92,RU,2024-02-03 20:20:46
277,buckingham,51.9997,-0.9878,11.48,91,100,1.34,GB,2024-02-03 20:20:46
278,inhambane,-23.865,35.3833,24.46,80,57,2.11,MZ,2024-02-03 20:12:42
279,qaryat suluq,31.6682,20.2521,13.29,75,17,2.95,LY,2024-02-03 20:20:46
280,ondo,7.1,4.8333,25.56,31,73,0.52,NG,2024-02-03 20:20:47
281,frutal,-20.0247,-48.9406,22.8,78,100,4.23,BR,2024-02-03 20:20:47
282,geraldton,-28.7667,114.6,21.23,68,100,11.32,AU,2024-02-03 20:12:25
283,quellon,-43.1167,-73.6167,14.69,55,66,3.72,CL,2024-02-03 20:12:47
284,phan rang-thap cham,11.5667,108.9833,21.23,89,31,2.5,VN,2024-02-03 20:12:47
285,birmitrapur,22.4,84.7667,15.8,44,6,0.25,IN,2024-02-03 20:20:48
286,callao,-12.0667,-77.15,28.16,61,0,6.69,PE,2024-02-03 20:12:30
287,thisted,56.9552,8.6949,5.67,78,100,12.13,DK,2024-02-03 20:20:49
288,susanville,40.4163,-120.653,4.9,59,75,2.57,US,2024-02-03 20:20:49
289,santa ana de yacuma,-13.75,-65.4333,30.97,66,75,0.0,BO,2024-02-03 20:20:49
290,tongliao,43.6125,122.2653,-21.2,89,5,2.22,CN,2024-02-03 20:20:49
291,sakaiminato,35.55,133.2333,4.99,93,75,5.66,JP,2024-02-03 20:20:50
292,alpena,45.0617,-83.4327,4.18,73,0,1.34,US,2024-02-03 20:20:50
293,midvagur,62.0511,-7.1939,2.46,87,75,5.66,FO,2024-02-03 20:20:50
294,jijiga,9.35,42.8,17.59,82,23,4.71,ET,2024-02-03 20:20:51
295,pandan,14.0453,124.1694,24.84,83,14,4.01,PH,2024-02-03 20:12:38
296,greymouth,-42.4667,171.2,13.33,79,89,1.83,NZ,2024-02-03 20:09:30
297,valle de la pascua,9.2155,-66.0073,37.38,28,100,1.28,VE,2024-02-03 20:20:52
298,thenkasi,8.9667,77.3,23.53,84,35,1.85,IN,2024-02-03 20:20:52
299,loukhi,66.0764,33.0381,-5.03,95,100,5.14,RU,2024-02-03 20:20:52
300,manaure,11.7751,-72.4445,27.23,77,99,7.41,CO,2024-02-03 20:20:53
301,santiago de cao,-7.9589,-79.2392,24.07,78,75,3.6,PE,2024-02-03 20:20:53
302,kembe,4.6228,21.8865,25.05,28,100,0.49,CF,2024-02-03 20:20:53
303,velikiy novgorod,58.5167,31.2833,-0.49,97,100,4.88,RU,2024-02-03 20:20:53
304,lata,40.1629,-8.3327,12.73,81,48,0.26,PT,2024-02-03 20:12:40
305,ola,59.5833,151.2833,-19.75,79,99,4.64,RU,2024-02-03 20:12:20
306,ust'-ilimsk,58.0006,102.6619,-28.09,100,100,1.34,RU,2024-02-03 20:12:40
307,ballycastle,55.2044,-6.243,8.08,70,99,8.24,GB,2024-02-03 20:20:55
308,kandyagash,49.4744,57.4233,-4.17,88,100,7.33,KZ,2024-02-03 20:20:55
309,isiolo,0.3546,37.5822,22.97,67,82,2.58,KE,2024-02-03 20:20:55
310,pacific grove,36.6177,-121.9166,14.12,74,100,2.06,US,2024-02-03 20:11:00
311,marovoay,-16.1,46.6333,25.35,86,98,2.1,MG,2024-02-03 20:20:56
312,saint-philippe,-21.3585,55.7679,23.77,77,100,4.55,RE,2024-02-03 20:12:45
313,masuguru,-11.3667,38.4167,23.73,97,100,1.47,TZ,2024-02-03 20:20:56
314,diapaga,12.0708,1.7889,26.41,14,65,4.45,BF,2024-02-03 20:20:56
315,kulunda,52.566,78.9385,-5.34,85,100,6.8,RU,2024-02-03 20:20:57
316,ozernyy,55.5802,32.4127,1.43,99,100,5.09,RU,2024-02-03 20:20:57
317,port blair,11.6667,92.75,24.02,88,34,0.0,IN,2024-02-03 20:12:12
318,oranjemund,-28.55,16.4333,20.49,89,5,1.86,NA,2024-02-03 20:20:58
319,laguna,38.421,-121.4238,13.67,68,0,2.57,US,2024-02-03 20:20:58
320,tura,25.5198,90.2201,11.73,34,0,1.62,IN,2024-02-03 20:12:32
321,qamdo,31.1667,97.2333,-12.65,41,39,2.4,CN,2024-02-03 20:12:30
322,queenstown,-31.8976,26.8753,22.62,69,90,1.36,ZA,2024-02-03 20:12:46
323,afaahiti,-17.75,-149.2833,28.93,76,52,2.92,PF,2024-02-03 20:12:00
324,valparaiso,-33.0393,-71.6273,29.13,41,100,9.77,CL,2024-02-03 20:21:00
325,mandalgovi,45.7625,106.2708,-21.1,89,11,2.13,MN,2024-02-03 20:21:00
326,puerto rico,-26.796,-55.024,35.58,32,79,0.93,AR,2024-02-03 20:20:39
327,paimpol,48.7784,-3.0438,10.88,90,99,4.25,FR,2024-02-03 20:21:01
328,laminusa,5.5549,120.9136,26.57,85,49,2.73,PH,2024-02-03 20:12:37
329,kananga,-5.8958,22.4178,21.95,86,96,1.13,CD,2024-02-03 20:21:01
330,labuan,5.2767,115.2417,25.2,100,20,0.0,MY,2024-02-03 20:21:02
331,nar'yan-mar,67.6713,53.087,-12.72,85,25,6.71,RU,2024-02-03 20:12:34
332,tromso,69.6496,18.957,-1.99,93,100,0.51,NO,2024-02-03 20:21:02
333,didim,37.3756,27.2678,5.76,65,0,4.72,TR,2024-02-03 20:21:02
334,san patricio,28.017,-97.5169,24.53,36,0,7.22,US,2024-02-03 20:21:03
335,aldan,58.6031,125.3894,-30.46,99,61,1.95,RU,2024-02-03 20:21:03
336,darwin,-12.4611,130.8418,27.99,89,40,5.14,AU,2024-02-03 20:21:02
337,badiyah,22.45,58.8,20.21,77,7,3.06,OM,2024-02-03 20:21:03
338,krzeszowice,50.1425,19.6322,8.78,87,75,8.75,PL,2024-02-03 20:21:03
339,haifa,32.8156,34.9892,11.78,89,71,4.93,IL,2024-02-03 20:21:04
340,chimbote,-9.0853,-78.5783,26.95,70,60,4.28,PE,2024-02-03 20:20:38
341,flin flon,54.7682,-101.865,2.65,94,98,1.7,CA,2024-02-03 20:12:23
342,new norfolk,-42.7826,147.0587,15.51,96,100,0.68,AU,2024-02-03 20:21:04
343,severnoye,56.3491,78.3619,-12.85,96,99,2.56,RU,2024-02-03 20:21:05
344,aral,40.5156,81.2636,-1.6,59,100,1.92,CN,2024-02-03 20:21:05
345,lorengau,-2.0226,147.2712,27.6,78,47,1.75,PG,2024-02-03 20:12:22
346,kaiyuan,23.6977,103.3037,11.61,63,0,2.66,CN,2024-02-03 20:21:05
347,nuevitas,21.5453,-77.2644,24.39,65,91,3.99,CU,2024-02-03 20:21:05
348,calabozo,8.9242,-67.4293,37.07,30,100,2.2,VE,2024-02-03 20:21:06
349,fuxin,42.0156,121.6589,-14.89,80,6,1.54,CN,2024-02-03 20:21:06
350,kovdor,67.5662,30.4758,-5.91,95,100,2.93,RU,2024-02-03 20:21:06
351,juneau,58.3019,-134.4197,-5.0,86,100,0.0,US,2024-02-03 20:21:06
352,orapa,-21.2833,25.3667,26.41,30,58,2.99,BW,2024-02-03 20:21:07
353,argo,37.6333,22.7333,7.1,73,2,1.2,GR,2024-02-03 20:21:07
354,ouesso,1.6136,16.0517,29.33,39,100,0.27,CG,2024-02-03 20:21:07
355,buchanan,5.8808,-10.0467,27.4,85,82,4.13,LR,2024-02-03 20:21:07
356,tarko-sale,64.9225,77.785,-16.83,94,100,2.5,RU,2024-02-03 20:21:07
357,extrema,-22.8547,-46.3183,23.82,78,100,1.31,BR,2024-02-03 20:12:06
358,loushanguan,28.1375,106.82,3.79,91,100,1.21,CN,2024-02-03 20:21:08
359,shingu,33.7333,135.9833,6.85,95,100,2.51,JP,2024-02-03 20:12:11
360,orchard homes,46.8633,-114.0484,4.77,92,100,0.45,US,2024-02-03 20:21:08
361,catalhoyuk,37.6685,32.8269,-0.88,63,69,1.0,TR,2024-02-03 20:12:45
362,gizo,-8.103,156.8419,28.27,79,100,2.88,SB,2024-02-03 20:21:09
363,sosua,19.7667,-70.5167,28.99,83,75,2.57,DO,2024-02-03 20:21:09
364,primorsk,46.7348,36.3443,3.37,97,100,11.32,UA,2024-02-03 20:21:09
365,sangueya,10.7,-14.3667,25.1,66,0,1.96,GN,2024-02-03 20:21:09
366,bianzhuang,34.8486,118.0447,-2.62,57,100,5.1,CN,2024-02-03 20:21:10
367,nikolayevsk,50.0282,45.4595,-1.92,91,100,6.78,RU,2024-02-03 20:21:10
368,lerma,42.0261,-3.7598,6.31,63,6,0.83,ES,2024-02-03 20:21:10
369,estevan,49.1334,-102.9842,3.19,93,100,3.6,CA,2024-02-03 20:18:42
370,guymon,36.6828,-101.4816,12.0,50,20,5.66,US,2024-02-03 20:21:11
371,bansud,12.865,121.4564,23.32,88,32,2.52,PH,2024-02-03 20:21:11
372,palu,-0.8917,119.8707,24.49,96,99,0.7,ID,2024-02-03 20:21:11
373,sittwe,20.15,92.9,19.08,59,4,4.01,MM,2024-02-03 20:10:47
374,hovd,48.0056,91.6419,-19.47,86,5,1.26,MN,2024-02-03 20:21:12
375,keflavik,64.0049,-22.5624,-2.76,80,75,9.77,IS,2024-02-03 20:12:10
376,pangody,65.85,74.4859,-17.61,98,100,2.13,RU,2024-02-03 20:12:04
377,zorritos,-3.6805,-80.6782,31.16,78,100,4.64,PE,2024-02-03 20:21:12
378,tocopilla,-22.092,-70.1979,23.81,66,8,1.5,CL,2024-02-03 20:21:13
379,tazacorte,28.629,-17.9293,21.54,29,0,3.6,ES,2024-02-03 20:12:30
380,antofagasta,-23.65,-70.4,23.6,69,5,3.11,CL,2024-02-03 20:16:03
381,kalmunai,7.4167,81.8167,24.84,86,93,3.04,LK,2024-02-03 20:21:13
382,launceston,-41.45,147.1667,16.8,82,100,7.2,AU,2024-02-03 20:18:48
383,altai,46.3722,96.2583,-17.06,92,100,1.15,MN,2024-02-03 20:21:14
384,zouerate,22.7187,-12.4521,20.38,13,98,4.37,MR,2024-02-03 20:12:34
385,egersund,58.4513,5.9997,4.49,91,100,13.53,NO,2024-02-03 20:21:14
386,sanctuary point,-35.1114,150.629,22.08,83,90,3.46,AU,2024-02-03 20:21:14
387,broome,42.2506,-75.833,3.65,74,0,4.12,US,2024-02-03 20:12:36
388,arys,42.4252,68.795,-0.35,74,100,3.58,KZ,2024-02-03 20:21:15
389,smithers,54.7804,-127.1743,-3.82,71,95,0.34,CA,2024-02-03 20:12:25
390,nanning,22.8167,108.3167,20.25,97,100,2.27,CN,2024-02-03 20:21:15
391,peniche,39.3558,-9.3811,13.03,90,0,1.31,PT,2024-02-03 20:21:16
392,cobija,-11.0267,-68.7692,33.49,47,74,1.59,BO,2024-02-03 20:21:16
393,sevenoaks,51.27,0.1928,12.07,56,75,4.63,GB,2024-02-03 20:21:17
394,rey bouba,8.6724,14.1786,25.25,16,8,1.79,CM,2024-02-03 20:21:17
395,campbellton,48.0075,-66.6727,-4.75,79,99,2.21,CA,2024-02-03 20:21:18
396,scarborough,54.2797,-0.4044,7.59,80,88,1.79,GB,2024-02-03 20:15:32
397,paka,4.6374,103.4368,22.96,94,31,0.0,MY,2024-02-03 20:21:19
398,kanker,20.2719,81.4931,17.75,43,0,1.27,IN,2024-02-03 20:21:21
399,fisterra,42.9049,-9.2629,11.53,74,67,1.69,ES,2024-02-03 20:21:21
400,bikenibeu village,1.3673,173.1241,28.97,76,82,6.87,KI,2024-02-03 20:12:05
401,magadan,59.5667,150.8,-19.37,77,100,4.08,RU,2024-02-03 20:21:22
402,hilo,19.7297,-155.09,22.92,76,100,6.69,US,2024-02-03 20:21:22
403,kayangel,8.0823,134.7173,27.43,77,88,10.43,PW,2024-02-03 20:12:41
404,condoto,5.0935,-76.6497,31.11,61,96,1.88,CO,2024-02-03 20:21:24
405,kandalaksha,67.162,32.4123,-5.1,96,100,4.01,RU,2024-02-03 20:21:25
406,bel ombre,-4.6167,55.4167,28.79,73,99,4.8,SC,2024-02-03 20:12:38
407,cabo san lucas,22.8909,-109.9124,25.34,49,0,8.23,MX,2024-02-03 20:16:53
408,wawa,9.9022,4.4192,28.02,20,2,2.56,NG,2024-02-03 20:21:26
409,manokwari,-0.8667,134.0833,25.67,80,100,1.71,ID,2024-02-03 20:21:26
410,hobyo,5.3505,48.5268,25.92,86,97,7.52,SO,2024-02-03 20:21:26
411,kandiaro,27.0601,68.2091,15.27,81,98,2.51,PK,2024-02-03 20:21:26
412,northport,33.229,-87.5772,20.9,43,0,4.63,US,2024-02-03 20:17:49
413,qidu,26.7653,119.5472,12.04,97,100,1.53,CN,2024-02-03 20:21:29
414,dakhla,23.6848,-15.958,20.55,57,92,6.37,EH,2024-02-03 20:12:31
415,mirnyy,62.5353,113.9611,-29.87,75,25,0.89,RU,2024-02-03 20:21:30
416,tsiombe,-25.3,45.4833,23.65,81,47,5.86,MG,2024-02-03 20:12:16
417,inari,68.906,27.0288,-1.89,97,100,1.88,FI,2024-02-03 20:21:30
418,langsa,4.4683,97.9683,23.13,93,34,0.52,ID,2024-02-03 20:21:30
419,puerto deseado,-47.7503,-65.8938,13.42,50,4,7.39,AR,2024-02-03 20:12:40
420,harstad,68.799,16.5293,-1.03,95,100,8.05,NO,2024-02-03 20:12:08
421,tabuk,17.4189,121.4443,20.55,94,15,1.44,PH,2024-02-03 20:21:31
422,aroma,15.8167,36.1333,22.82,38,13,5.44,SD,2024-02-03 20:21:31
423,chibuto,-24.6867,33.5306,22.06,82,1,2.48,MZ,2024-02-03 20:21:31
424,myitkyina,25.3833,97.4,11.09,94,11,1.32,MM,2024-02-03 20:21:32
425,along,28.1667,94.7667,6.88,89,70,1.0,IN,2024-02-03 20:21:32
426,itoman,26.1247,127.6694,22.43,90,100,5.14,JP,2024-02-03 20:12:29
427,shantobe,52.4581,68.1839,-2.54,95,100,6.82,KZ,2024-02-03 20:21:32
428,mount pearl,47.5166,-52.7813,-1.75,89,89,5.36,CA,2024-02-03 20:12:33
429,bismarck,46.8083,-100.7837,2.91,93,100,5.14,US,2024-02-03 20:20:38
430,shetpe,44.1667,52.1167,0.31,92,94,3.47,KZ,2024-02-03 20:21:33
431,magdagachi,53.45,125.8,-30.45,99,21,1.2,RU,2024-02-03 20:21:33
432,college,64.8569,-147.8028,-37.53,64,100,0.0,US,2024-02-03 20:11:59
433,kingaroy,-26.5333,151.8333,19.38,97,40,1.04,AU,2024-02-03 20:21:35
434,cartagena,10.3997,-75.5144,29.79,74,20,6.17,CO,2024-02-03 20:15:28
435,nanakuli,21.3906,-158.1547,24.97,51,40,4.63,US,2024-02-03 20:21:36
436,motueka,-41.1333,173.0167,15.03,59,8,1.52,NZ,2024-02-03 20:21:37
437,pachino,36.7186,15.0907,11.6,70,0,3.24,IT,2024-02-03 20:21:37
438,varnamo,57.186,14.04,4.71,78,96,8.13,SE,2024-02-03 20:21:37
439,usogorsk,63.4106,48.6872,-7.96,95,100,3.44,RU,2024-02-03 20:21:38
440,manicore,-5.8092,-61.3003,28.06,88,29,1.36,BR,2024-02-03 20:21:38
441,steamboat springs,40.485,-106.8317,1.3,89,100,2.57,US,2024-02-03 20:21:39
442,morondava,-20.2833,44.2833,27.06,81,6,2.47,MG,2024-02-03 20:12:24
443,aasiaat,68.7098,-52.8699,-30.9,98,66,2.34,GL,2024-02-03 20:12:01
444,buala,-8.145,159.5921,26.99,85,99,2.22,SB,2024-02-03 20:21:40
445,fort st. john,56.2499,-120.8529,-7.06,53,20,3.09,CA,2024-02-03 20:21:40
446,fort mcmurray,56.7268,-111.381,-2.23,86,100,4.63,CA,2024-02-03 20:21:41
447,uribia,11.7139,-72.266,29.19,65,100,7.0,CO,2024-02-03 20:21:41
448,castillos,-34.1667,-53.8333,30.07,48,100,6.28,UY,2024-02-03 20:12:29
449,arraial do cabo,-22.9661,-42.0278,27.92,83,75,6.69,BR,2024-02-03 20:09:25
450,bhan,26.5583,67.7214,15.94,83,99,3.01,PK,2024-02-03 20:21:42
451,lamar,33.6668,-95.5836,14.43,87,100,4.63,US,2024-02-03 20:12:34
452,isafjordur,66.0755,-23.124,-5.45,94,98,5.05,IS,2024-02-03 20:12:12
453,opuwo,-18.0607,13.84,20.47,81,100,2.2,NA,2024-02-03 20:21:42
454,richards bay,-28.783,32.0377,23.37,80,100,3.6,ZA,2024-02-03 20:12:48
455,ta`u,-14.2336,-169.5144,27.14,88,100,7.04,AS,2024-02-03 20:12:06
456,dwarka,22.2394,68.9678,23.12,73,0,4.22,IN,2024-02-03 20:12:36
457,slyudyanka,51.6594,103.7061,-15.2,98,100,1.34,RU,2024-02-03 20:21:44
458,miguel ahumada,30.6167,-106.5167,12.66,27,2,13.19,MX,2024-02-03 20:21:44
459,colby,39.3958,-101.0524,10.0,87,100,6.71,US,2024-02-03 20:21:44
460,mao,39.8885,4.2658,10.31,93,0,2.06,ES,2024-02-03 20:21:45
461,erenhot,43.6475,111.9767,-19.56,92,70,3.33,CN,2024-02-03 20:12:44
462,pisco,-13.7,-76.2167,28.03,61,20,3.6,PE,2024-02-03 20:12:11
463,saldanha,-33.0117,17.9442,19.03,80,97,2.62,ZA,2024-02-03 20:21:45
464,rio casca,-20.2261,-42.6508,27.3,78,85,1.46,BR,2024-02-03 20:17:09
465,baley,51.6,116.6333,-30.23,99,14,1.01,RU,2024-02-03 20:21:46
466,okha,53.5739,142.9478,-22.83,91,7,6.65,RU,2024-02-03 20:21:42
467,dubai,25.2582,55.3047,20.96,46,0,5.14,AE,2024-02-03 20:13:40
468,esmeraldas,-19.7625,-44.3139,29.58,72,71,1.23,BR,2024-02-03 20:21:47
469,port douglas,-16.4833,145.4667,26.87,82,95,1.3,AU,2024-02-03 20:21:47
470,bordj ghdir,35.9011,4.8981,4.51,58,0,0.19,DZ,2024-02-03 20:21:47
471,praia da vitoria,38.7333,-27.0667,16.53,82,20,4.93,PT,2024-02-03 20:21:47
472,pangkalan brandan,4.0238,98.2782,23.21,94,29,0.54,ID,2024-02-03 20:21:47
473,yeraliyev,43.2,51.65,4.0,88,97,1.69,KZ,2024-02-03 20:21:48
474,villa bruzual,9.3328,-69.1208,32.74,49,98,1.75,VE,2024-02-03 20:21:48
475,yavas,54.4159,42.8491,-6.8,97,100,2.07,RU,2024-02-03 20:21:48
476,patan,27.6667,85.3333,8.21,87,20,1.03,NP,2024-02-03 20:21:48
477,dikwa,12.024,13.9165,21.82,27,0,4.4,NG,2024-02-03 20:21:48
478,flying fish cove,-10.4217,105.6791,22.82,100,58,1.03,CX,2024-02-03 20:12:00
479,kenai,60.5544,-151.2583,-21.97,84,100,3.6,US,2024-02-03 20:21:49
480,santa elena de uairen,4.6167,-61.1333,32.14,29,32,3.38,VE,2024-02-03 20:21:49
481,marka,1.7159,44.7717,26.22,84,13,8.2,SO,2024-02-03 20:21:49
482,riberalta,-10.9833,-66.1,34.11,55,75,3.09,BO,2024-02-03 20:21:51
483,eyl,7.9803,49.8164,24.68,85,90,7.46,SO,2024-02-03 20:21:51
484,hadibu,12.65,54.0333,24.35,78,12,3.58,YE,2024-02-03 20:12:08
485,mahibadhoo,3.7833,72.9667,27.79,79,36,4.48,MV,2024-02-03 20:21:51
486,guarapari,-20.6667,-40.4975,27.16,77,81,1.99,BR,2024-02-03 20:17:49
487,chui,-33.6971,-53.4616,29.61,48,100,5.61,UY,2024-02-03 20:21:52
488,venkatagiri,13.9667,79.5833,21.42,91,48,1.23,IN,2024-02-03 20:21:52
489,bata,1.8639,9.7658,27.76,80,97,2.77,GQ,2024-02-03 20:21:18
490,sawakin,19.1059,37.3321,21.32,58,6,4.31,SD,2024-02-03 20:21:52
491,souillac,-20.5167,57.5167,24.08,70,72,4.65,MU,2024-02-03 20:12:07
492,alegrete,-29.7831,-55.7919,34.58,41,1,2.54,BR,2024-02-03 20:21:53
493,amos,48.5669,-78.1162,-1.59,84,63,2.77,CA,2024-02-03 20:19:45
494,ciudad lazaro cardenas,17.9583,-102.2,26.98,60,0,4.57,MX,2024-02-03 20:18:51
495,marsh harbour,26.5412,-77.0636,21.37,65,94,2.05,BS,2024-02-03 20:21:53
496,khandyga,62.6667,135.6,-43.46,100,70,0.85,RU,2024-02-03 20:21:54
497,kivioli,59.3531,26.9711,-0.03,92,98,5.07,EE,2024-02-03 20:21:54
498,asha,54.9973,57.2722,-6.01,95,100,4.02,RU,2024-02-03 20:17:31
499,porto novo,6.4965,2.6036,26.14,63,30,2.37,BJ,2024-02-03 20:21:54
500,cassilandia,-19.1133,-51.7342,24.17,71,100,1.08,BR,2024-02-03 20:21:55
501,al muwayh,22.4333,41.7583,15.98,33,72,2.48,SA,2024-02-03 20:21:55
502,kapa'a,22.0752,-159.319,23.99,56,100,11.32,US,2024-02-03 20:12:20
503,lakhnadon,22.6,79.6,17.7,40,0,0.57,IN,2024-02-03 20:21:56
504,howard springs,-12.497,131.047,27.95,88,100,3.98,AU,2024-02-03 20:12:18
505,constitucion,-35.3333,-72.4167,21.75,56,0,9.3,CL,2024-02-03 20:21:56
506,balabac,7.9868,117.0645,26.43,80,100,4.93,PH,2024-02-03 20:21:56
507,okahandja,-21.9833,16.9167,20.85,78,99,4.87,NA,2024-02-03 20:21:56
508,daru,-9.0763,143.2092,26.14,88,100,3.18,PG,2024-02-03 20:12:41
509,pizarro,4.9533,-77.366,27.79,73,100,2.49,CO,2024-02-03 20:21:57
510,santa terezinha,-29.9002,-50.0904,25.88,76,1,6.16,BR,2024-02-03 20:21:57
511,meiganga,6.5167,14.3,21.86,26,89,3.08,CM,2024-02-03 20:21:57
512,aykhal,66.0,111.5,-26.63,65,99,1.32,RU,2024-02-03 20:21:57
513,baotou,40.6522,109.8222,-8.85,91,100,1.63,CN,2024-02-03 20:21:58
514,kosh-agach,50.0,88.6667,-25.94,91,67,1.79,RU,2024-02-03 20:21:58
515,la'ie,21.6477,-157.9253,22.98,61,3,5.36,US,2024-02-03 20:12:44
516,freetown,8.484,-13.2299,25.72,84,0,4.07,SL,2024-02-03 20:12:43
517,kuching,1.55,110.3333,27.79,94,40,0.0,MY,2024-02-03 20:12:36
518,waingapu,-9.6567,120.2641,26.47,87,100,3.15,ID,2024-02-03 20:12:32
519,tahe,52.3333,124.7333,-25.6,95,16,1.79,CN,2024-02-03 20:21:59
520,kidal,18.4411,1.4078,19.36,9,13,5.37,ML,2024-02-03 20:21:59
521,san antonio de pale,-1.4014,5.6325,28.26,76,100,3.44,GQ,2024-02-03 20:12:21
522,pechora,65.1472,57.2244,-12.3,83,28,4.47,RU,2024-02-03 20:22:00
523,peto,20.1333,-88.9167,31.96,40,0,2.64,MX,2024-02-03 20:12:43
524,cooper's town,26.8667,-77.5167,20.62,73,85,2.78,BS,2024-02-03 20:22:00
525,burang,30.25,81.1667,-10.82,84,18,1.77,CN,2024-02-03 20:22:00
526,belmonte,-15.8631,-38.8828,27.64,71,92,3.59,BR,2024-02-03 20:12:35
527,acajutla,13.5928,-89.8275,29.66,59,4,6.25,SV,2024-02-03 20:12:35
528,talavera de la reina,39.9635,-4.8308,9.9,61,5,2.5,ES,2024-02-03 20:22:01
529,argostolion,38.1811,20.489,8.75,51,0,2.29,GR,2024-02-03 20:22:01
530,nabire,-3.3667,135.4833,24.51,92,99,1.18,ID,2024-02-03 20:12:47
531,kattivakkam,13.2167,80.3167,26.05,77,7,4.07,IN,2024-02-03 20:22:02
532,redlands,34.0556,-117.1825,15.69,57,75,1.54,US,2024-02-03 20:19:14
533,virginia beach,36.8529,-75.978,8.91,60,20,5.14,US,2024-02-03 20:21:05
534,al jaradiyah,16.5795,42.9124,25.72,65,90,3.79,SA,2024-02-03 20:22:02
535,zahle,33.8497,35.9042,6.31,93,82,2.42,LB,2024-02-03 20:22:02
536,gladstone,-23.85,151.25,24.96,78,5,2.06,AU,2024-02-03 20:22:03
537,bakani,24.2833,76.2333,20.4,49,4,1.25,IN,2024-02-03 20:22:03
538,horta,38.5333,-28.6333,16.8,86,20,8.75,PT,2024-02-03 20:12:36
539,ponta delgada,37.7333,-25.6667,16.4,77,20,4.12,PT,2024-02-03 20:12:21
540,miranda,3.2499,-76.2281,28.07,67,100,1.07,CO,2024-02-03 20:22:03
541,tarawa,1.419,172.984,29.05,84,75,4.63,KI,2024-02-03 20:22:04
542,guiuan,11.0333,125.7247,27.56,70,70,5.96,PH,2024-02-03 20:22:04
543,port isabel,26.0734,-97.2086,26.05,68,0,8.23,US,2024-02-03 20:22:04
544,kuroiso,36.9667,140.05,0.46,64,100,1.28,JP,2024-02-03 20:22:04
545,verkhnevilyuysk,63.4453,120.3167,-25.38,94,98,2.15,RU,2024-02-03 20:22:05
546,vasarosnameny,48.1333,22.3167,4.47,93,100,2.28,HU,2024-02-03 20:22:05
547,mochudi,-24.4167,26.15,26.33,41,3,2.89,BW,2024-02-03 20:22:05
548,mincivan,39.0294,46.7185,4.06,58,99,3.88,AZ,2024-02-03 20:22:05
549,esquina,-30.0144,-59.5272,40.2,17,22,2.08,AR,2024-02-03 20:22:05
550,isangel,-19.55,169.2667,27.88,84,100,3.53,VU,2024-02-03 20:12:41
551,shakhun'ya,57.6758,46.6114,-10.08,98,100,1.28,RU,2024-02-03 20:22:06
552,bonthe,7.5264,-12.505,26.8,78,0,4.58,SL,2024-02-03 20:22:06
553,namanga,-2.5433,36.7905,21.43,69,100,2.69,KE,2024-02-03 20:22:06
554,taft,31.7471,54.2088,0.97,48,0,1.03,IR,2024-02-03 20:22:07
555,santa ana,33.7456,-117.8678,17.91,56,75,3.09,US,2024-02-03 20:20:32
556,belabo,4.9333,13.3,23.96,29,56,1.26,CM,2024-02-03 20:22:07
557,bouillon,49.7932,5.067,8.92,97,100,4.2,BE,2024-02-03 20:22:07
558,kaoma,-14.7833,24.8,19.92,87,97,1.62,ZM,2024-02-03 20:22:07
559,masterton,-40.9597,175.6575,15.61,67,4,1.63,NZ,2024-02-03 20:10:45
560,colares,38.7992,-9.4469,15.18,80,0,3.58,PT,2024-02-03 20:12:33
561,strzelno,52.6279,18.1725,9.92,90,67,8.0,PL,2024-02-03 20:22:08
